"","id","name","latitude","longitude","elevation"
"1","JA000047636","NAGOYA",35.167,136.967,56
"3","JA000047651","TSU",34.733,136.517,18
"4","JA000047654","HAMAMATSU",34.717,137.717,33
"5","JA000047656","SHIZUOKA",34.983,138.4,15
"8","JA000047672","TATEYAMA",34.983,139.867,7
"10","JA000047675","OSHIMA",34.75,139.383,79
"12","JA000047755","HAMADA",34.9,132.067,20
"14","JA000047759","KYOTO",35.017,135.733,46
"15","JA000047761","HIKONE",35.283,136.25,89
